stop_id,stop_name,stop_desc,stop_lat,stop_lon,zone_id,location_type,parent_station,platform_code
201_1,PURATCHI THALAIVAR DR.M.G.RAMACHANDRAN CENTRAL METRO,,13.0814278369008,80.2729075947633,SCC,0,104,1				
202_1,EGMORE METRO,,13.0789665138486,80.2609527908126,SEG,0,202,1				
203_1,NEHRU PARK,,13.078611539333,80.2500877161602,SNP,0,203,1				
204_1,KILPAUK,,13.0774583333333,80.2426277777777,SKM,0,204,1				
205_1,PACHAIYAPPA,,13.0753871698823,80.2333847555819,SPC,0,205,1				
206_1,SHENOY NAGAR,,13.0783722222222,80.2251166666666,SSN,0,206,1				
207_1,ANNA NAGAR EAST,,13.0845480398521,80.2195665482508,SAE,0,207,1				
208_1,ANNA NAGAR TOWER,,13.084946899686,80.2089036521052,SAT,0,208,1				
209_1,THIRUMANGALAM,,13.0852057015341,80.2015389755152,STI,0,209,1				
210_1,KOYAMBEDU,,13.0733611111111,80.194875,SKO,0,210,1				
211_1,PURATCHI THALAIVI DR.J.JAYALALITHAA CMBT METRO,,13.0684826617331,80.2039458648564,SCM,0,211,1				
212_1,ARUMBAKKAM,,13.0620055555555,80.2117027777777,SAR,0,212,1				
213_1,VADAPALANI,,13.0506972222222,80.212075,SVA,0,213,1				
214_1,ASHOK NAGAR,,13.0354926945213,80.2110574620364,SAN,0,214,1				
215_1,EKKATTUTHANGAL,,13.0165209328502,80.2052816905165,SSI,0,215,1				
216_1,ARIGNAR ANNA ALANDUR,,13.0041955899379,80.2015729878512,SAL,0,114,3				
217_1,ST.THOMAS MOUNT,,12.9947486116903,80.1975543240622,SMM,0,217,1				
101_1,WASHERMENPET METRO,,13.1072181538364,80.28078720715,SWA,0,101,1				
102_1,MANNADI,,13.0954195481676,80.2860944786235,SMA,0,102,1				
103_1,HIGH COURT,,13.0870682009495,80.2850252375623,SHC,0,103,1				
104_1,PURATCHI THALAIVAR DR.M.G.RAMACHANDRAN CENTRAL METRO,,13.0814278369008,80.2729075947633,SCC,0,104,5				
105_1,GOVERNMENT ESTATE,,13.0695605560349,80.2728393302093,SGE,0,105,1				
106_1,LIC,,13.064554966336,80.2661008897026,SLI,0,106,1				
107_1,THOUSAND LIGHTS,,13.0583556960582,80.2585174189927,STL,0,107,1				
108_1,AG-DMS,,13.0446825453354,80.2480328953418,SGM,0,108,1				
109_1,TEYNAMPET,,13.0371184281625,80.2464608951659,STE,0,109,1				
110_1,NANDANAM,,13.0316511399874,80.2410427600109,SCR,0,110,1				
111_1,SAIDAPET METRO,,13.0235991970907,80.2283601008055,SSA,0,111,1				
112_1,LITTLE MOUNT,,13.0144841144851,80.2239765743067,SLM,0,112,1				
113_1,GUINDY METRO,,13.0091657741096,80.2130302370042,SGU,0,113,1				
114_1,ARIGNAR ANNA ALANDUR,,13.0041955899379,80.2015729878512,SAL,0,114,1				
115_1,NANGANALLUR ROAD,,12.9999661022836,80.1941563192857,SOT,0,115,1				
116_1,MEENAMBAKKAM METRO,,12.987750855203,80.1765865612356,SME,0,116,1				
117_1,AIRPORT,,12.9809762425917,80.1642541413904,SAP,0,117,1				
201_2,PURATCHI THALAIVAR DR.M.G.RAMACHANDRAN CENTRAL METRO,,13.0814278369008,80.2729075947633,SCC,0,104,2				
202_2,EGMORE METRO,,13.0789665138486,80.2609527908126,SEG,0,202,2				
203_2,NEHRU PARK,,13.078611539333,80.2500877161602,SNP,0,203,2				
204_2,KILPAUK,,13.0774583333333,80.2426277777777,SKM,0,204,2				
205_2,PACHAIYAPPA,,13.0753871698823,80.2333847555819,SPC,0,205,2				
206_2,SHENOY NAGAR,,13.0783722222222,80.2251166666666,SSN,0,206,2				
207_2,ANNA NAGAR EAST,,13.0845480398521,80.2195665482508,SAE,0,207,2				
208_2,ANNA NAGAR TOWER,,13.084946899686,80.2089036521052,SAT,0,208,2				
209_2,THIRUMANGALAM,,13.0852057015341,80.2015389755152,STI,0,209,2				
210_2,KOYAMBEDU,,13.0733611111111,80.194875,SKO,0,210,2				
211_2,PURATCHI THALAIVI DR.J.JAYALALITHAA CMBT METRO,,13.0684826617331,80.2039458648564,SCM,0,211,2				
212_2,ARUMBAKKAM,,13.0620055555555,80.2117027777777,SAR,0,212,2				
213_2,VADAPALANI,,13.0506972222222,80.212075,SVA,0,213,2				
214_2,ASHOK NAGAR,,13.0354926945213,80.2110574620364,SAN,0,214,2				
215_2,EKKATTUTHANGAL,,13.0165209328502,80.2052816905165,SSI,0,215,2				
216_2,ARIGNAR ANNA ALANDUR,,13.0041955899379,80.2015729878512,SAL,0,114,4	
102_2,MANNADI,,13.0954195481676,80.2860944786235,SMA,0,102,2				
103_2,HIGH COURT,,13.0870682009495,80.2850252375623,SHC,0,103,2				
105_2,GOVERNMENT ESTATE,,13.0695605560349,80.2728393302093,SGE,0,105,2				
106_2,LIC,,13.064554966336,80.2661008897026,SLI,0,106,2				
107_2,THOUSAND LIGHTS,,13.0583556960582,80.2585174189927,STL,0,107,2				
108_2,AG-DMS,,13.0446825453354,80.2480328953418,SGM,0,108,2				
109_2,TEYNAMPET,,13.0371184281625,80.2464608951659,STE,0,109,2				
110_2,NANDANAM,,13.0316511399874,80.2410427600109,SCR,0,110,2				
111_2,SAIDAPET METRO,,13.0235991970907,80.2283601008055,SSA,0,111,2				
112_2,LITTLE MOUNT,,13.0144841144851,80.2239765743067,SLM,0,112,2				
113_2,GUINDY METRO,,13.0091657741096,80.2130302370042,SGU,0,113,2				
114_2,ARIGNAR ANNA ALANDUR,,13.0041955899379,80.2015729878512,SAL,0,114,2				
115_2,NANGANALLUR ROAD,,12.9999661022836,80.1941563192857,SOT,0,115,2				
116_2,MEENAMBAKKAM METRO,,12.987750855203,80.1765865612356,SME,0,116,2				
117_2,AIRPORT,,12.9809762425917,80.1642541413904,SAP,0,117,2				
104_3,PURATCHI THALAIVAR DR.M.G.RAMACHANDRAN CENTRAL METRO,,13.0814278369008,80.2729075947633,SCC,0,104,6				

104,PURATCHI THALAIVAR DR.M.G.RAMACHANDRAN CENTRAL METRO,,13.0814278369008,80.2729075947633,SCC,1,,				
202,EGMORE METRO,,13.0789665138486,80.2609527908126,SEG,1,,				
203,NEHRU PARK,,13.078611539333,80.2500877161602,SNP,1,,				
204,KILPAUK,,13.0774583333333,80.2426277777777,SKM,1,,				
205,PACHAIYAPPA,,13.0753871698823,80.2333847555819,SPC,1,,				
206,SHENOY NAGAR,,13.0783722222222,80.2251166666666,SSN,1,,				
207,ANNA NAGAR EAST,,13.0845480398521,80.2195665482508,SAE,1,,				
208,ANNA NAGAR TOWER,,13.084946899686,80.2089036521052,SAT,1,,				
209,THIRUMANGALAM,,13.0852057015341,80.2015389755152,STI,1,,				
210,KOYAMBEDU,,13.0733611111111,80.194875,SKO,1,,				
211,PURATCHI THALAIVI DR.J.JAYALALITHAA CMBT METRO,,13.0684826617331,80.2039458648564,SCM,1,,				
212,ARUMBAKKAM,,13.0620055555555,80.2117027777777,SAR,1,,				
213,VADAPALANI,,13.0506972222222,80.212075,SVA,1,,				
214,ASHOK NAGAR,,13.0354926945213,80.2110574620364,SAN,1,,				
215,EKKATTUTHANGAL,,13.0165209328502,80.2052816905165,SSI,1,,				
114,ARIGNAR ANNA ALANDUR,,13.0041955899379,80.2015729878512,SAL,1,,				
217,ST.THOMAS MOUNT,,12.9947486116903,80.1975543240622,SMM,1,,				
101,WASHERMENPET METRO,,13.1072181538364,80.28078720715,SWA,1,,				
102,MANNADI,,13.0954195481676,80.2860944786235,SMA,1,,				
103,HIGH COURT,,13.0870682009495,80.2850252375623,SHC,1,,				
105,GOVERNMENT ESTATE,,13.0695605560349,80.2728393302093,SGE,1,,				
106,LIC,,13.064554966336,80.2661008897026,SLI,1,,				
107,THOUSAND LIGHTS,,13.0583556960582,80.2585174189927,STL,1,,				
108,AG-DMS,,13.0446825453354,80.2480328953418,SGM,1,,				
109,TEYNAMPET,,13.0371184281625,80.2464608951659,STE,1,,				
110,NANDANAM,,13.0316511399874,80.2410427600109,SCR,1,,				
111,SAIDAPET METRO,,13.0235991970907,80.2283601008055,SSA,1,,				
112,LITTLE MOUNT,,13.0144841144851,80.2239765743067,SLM,1,,				
113,GUINDY METRO,,13.0091657741096,80.2130302370042,SGU,1,,				
115,NANGANALLUR ROAD,,12.9999661022836,80.1941563192857,SOT,1,,				
116,MEENAMBAKKAM METRO,,12.987750855203,80.1765865612356,SME,1,,				
117,AIRPORT,,12.9809762425917,80.1642541413904,SAP,1,,				